city,latitude,longitude,country_code,population
Rockingham,-32.27682,115.72978,AU,108022
Perth,-31.95224,115.8614,AU,1896548
Mandurah,-32.5269,115.7217,AU,83294
Darwin,-12.46113,130.84185,AU,129062
Bunbury,-33.32711,115.64137,AU,68248
Adelaide,-34.92866,138.59863,AU,1225235
Townsville,-19.26639,146.80569,AU,196219
Toowoomba,-27.56056,151.95386,AU,131258
Sydney,-33.86785,151.20732,AU,4627345
Rockhampton,-23.38032,150.50595,AU,61724
Reservoir,-37.71667,145,AU,50092
Newcastle,-32.92953,151.7801,AU,308308
Melbourne,-37.814,144.96332,AU,4246375
Maitland,-32.73308,151.5574,AU,67132
Mackay,-21.15345,149.16554,AU,74219
Launceston,-41.43876,147.13467,AU,106153
Hobart,-42.87936,147.32941,AU,216656
Gold Coast,-28.00029,153.43088,AU,591473
Geelong,-38.14711,144.36069,AU,226034
Craigieburn,-37.6,144.95,AU,50069
Wollongong,-34.424,150.89345,AU,292190
Canberra,-35.28346,149.12807,AU,367752
Cairns,-16.92366,145.76613,AU,153075
Bundaberg,-24.86621,152.3479,AU,70826
Brisbane,-27.46794,153.02809,AU,2189878
Bendigo,-36.75818,144.28024,AU,100617
Ballarat,-37.56622,143.84957,AU,97937
Hervey Bay,-25.28762,152.76936,AU,52230
Logan City,-27.63917,153.10944,AU,282673
Adelaide Hills,-34.91119,138.70735,AU,60394
Melbourne City Centre,-37.81501,144.96657,AU,60057
Abbotsford,49.05798,-122.25257,CA,151683
Ajax,43.85012,-79.03288,CA,90167
Aurora,44.00011,-79.46632,CA,55445
Barrie,44.40011,-79.66634,CA,182041
Brampton,43.68341,-79.76633,CA,433806
Brantford,43.1334,-80.26636,CA,87759
Brossard,45.45008,-73.46583,CA,69575
Burlington,43.38621,-79.83713,CA,164415
Burnaby,49.26636,-122.95263,CA,202799
Calgary,51.05011,-114.08529,CA,1019942
Cambridge,43.3601,-80.31269,CA,120372
Chilliwack,49.16638,-121.95257,CA,77000
Coquitlam,49.2846,-122.78217,CA,140000
Dartmouth,44.67134,-63.57719,CA,101343
Delta,49.14399,-122.9068,CA,101668
Drummondville,45.88336,-72.48241,CA,59489
Edmonton,53.55014,-113.46871,CA,712391
Fort McMurray,56.72676,-111.38103,CA,76000
Fredericton,45.94541,-66.66558,CA,52337
Gatineau,45.47723,-75.70164,CA,242124
Granby,45.40008,-72.73243,CA,53979
Greater Sudbury,46.49,-80.99001,CA,157857
Guelph,43.54594,-80.25599,CA,115760
Hamilton,43.25011,-79.84963,CA,519949
Kamloops,50.66648,-120.3192,CA,68714
Kanata,45.3001,-75.91606,CA,90000
Kelowna,49.88307,-119.48568,CA,125109
Kingston,44.22976,-76.48098,CA,114195
Kitchener,43.42537,-80.5112,CA,233700
Laval,45.56995,-73.692,CA,376845
Lethbridge,49.69999,-112.81856,CA,70617
London,42.98339,-81.23304,CA,346765
Longueuil,45.53121,-73.51806,CA,229330
Maple Ridge,49.21939,-122.60193,CA,70000
Markham,43.86682,-79.2663,CA,261573
Medicine Hat,50.03928,-110.67661,CA,63138
Milton,43.51681,-79.88294,CA,101715
Mississauga,43.5789,-79.6583,CA,668549
Moncton,46.09454,-64.7965,CA,108620
Montreal,45.50884,-73.58781,CA,1600000
Nanaimo,49.16638,-123.94003,CA,84905
Nepean,45.33619,-75.7225,CA,180000
Newmarket,44.05011,-79.46631,CA,74295
New Westminster,49.20678,-122.91092,CA,58549
Niagara Falls,43.10012,-79.06627,CA,82000
Norfolk County,42.8334,-80.38297,CA,60847
North Bay,46.3168,-79.46633,CA,50396
Notre-Dame-de-Grace,45.47675,-73.61432,CA,67000
Oakville,43.45011,-79.68292,CA,165697
Oshawa,43.90012,-78.84957,CA,308875
Ottawa,45.41117,-75.69812,CA,812129
Peterborough,44.30012,-78.31623,CA,75877
Pickering,43.90012,-79.13289,CA,87838
Port Coquitlam,49.26637,-122.76932,CA,58000
Prince George,53.9166,-122.75301,CA,65558
Red Deer,52.26682,-113.802,CA,73593
Regina,50.45008,-104.6178,CA,176183
Repentigny,45.74222,-73.45008,CA,76237
Richmond,49.17003,-123.13683,CA,182000
Richmond Hill,43.87111,-79.43725,CA,185541
Saguenay,48.41675,-71.06573,CA,143692
Saint-Hyacinthe,45.63076,-72.95699,CA,50326
Saint-Jean-sur-Richelieu,45.30713,-73.26259,CA,71613
Saint-Jerome,45.78036,-74.00365,CA,54948
Saint John,45.27076,-66.05616,CA,87857
Saint-Laurent,45.50008,-73.66585,CA,77391
Saint-Leonard,45.58773,-73.59501,CA,73423
Sarnia,42.97866,-82.40407,CA,72125
Saskatoon,52.13238,-106.66892,CA,198958
Sault Ste. Marie,46.51677,-84.33325,CA,66313
Sherbrooke,45.40008,-71.89908,CA,129447
Sherwood Park,53.51684,-113.3187,CA,55063
St. Albert,53.63344,-113.63533,CA,57719
St. Catharines,43.17126,-79.24267,CA,131989
Surrey,49.10635,-122.82509,CA,394976
Terrebonne,45.70004,-73.64732,CA,94703
Thunder Bay,48.38202,-89.25018,CA,99334
Toronto,43.70011,-79.4163,CA,2600000
Trois-Rivieres,46.34515,-72.5477,CA,119693
Vancouver,49.24966,-123.11934,CA,600000
Vaughan,43.8361,-79.49827,CA,238866
Victoria,48.4359,-123.35155,CA,289625
Waterloo,43.4668,-80.51639,CA,97475
Welland,42.98342,-79.24958,CA,50331
White Rock,49.01636,-122.8026,CA,66450
Windsor,42.30008,-83.01654,CA,278013
Winnipeg,49.8844,-97.14704,CA,632063
Woburn,43.76657,-79.22773,CA,53485
Halifax,44.6464,-63.57291,CA,359111
St. John's,47.56494,-52.70931,CA,99182
Quebec,46.81228,-71.21454,CA,528595
Levis,46.80326,-71.17793,CA,126396
Sydney,46.1351,-60.1831,CA,105968
Okanagan,50.36386,-119.34997,CA,297601
Jonquiere,48.41648,-71.24884,CA,54842
Ladner,49.08938,-123.08241,CA,200000
Willowdale,43.76672,-79.39909,CA,79440
La Haute-Saint-Charles,46.89028,-71.37222,CA,74070
Waterfront Communities-The Island,43.63388,-79.3772,CA,65913
Willowdale East,43.7706,-79.40148,CA,50434
Vina del Mar,-33.02457,-71.55183,CL,294551
Villa Alemana,-33.04222,-71.37333,CL,97320
Valparaiso,-33.036,-71.62963,CL,282448
Valdivia,-39.81422,-73.24589,CL,133419
Temuco,-38.73965,-72.59842,CL,238129
Talcahuano,-36.72494,-73.11684,CL,252968
Talca,-35.4264,-71.65542,CL,197479
Talagante,-33.66386,-70.92734,CL,51764
Santiago,-33.45694,-70.64827,CL,4837295
San Felipe,-32.74976,-70.72584,CL,59294
San Bernardo,-33.59217,-70.6996,CL,249858
San Antonio,-33.59473,-71.60746,CL,85651
Rancagua,-34.17083,-70.74444,CL,212695
Quilpue,-33.04752,-71.44249,CL,130263
Quillota,-32.88341,-71.24882,CL,67779
Punta Arenas,-53.15483,-70.91129,CL,117430
Puerto Montt,-41.4693,-72.94237,CL,160054
Puente Alto,-33.61169,-70.57577,CL,510417
Penaflor,-33.60627,-70.87649,CL,65495
Ovalle,-30.60106,-71.19901,CL,77138
Osorno,-40.57395,-73.13348,CL,135773
Melipilla,-33.68909,-71.21528,CL,63100
Los Angeles,-37.46973,-72.35366,CL,125430
Los Andes,-32.83369,-70.59827,CL,56859
Linares,-35.84667,-71.59308,CL,69535
La Serena,-29.90453,-71.24894,CL,154521
Iquique,-20.21326,-70.15027,CL,227499
Curico,-34.98279,-71.23943,CL,102438
Coronel,-37.03386,-73.14019,CL,92940
Coquimbo,-29.95332,-71.33947,CL,161317
Copiapo,-27.36679,-70.3314,CL,129280
Concepcion,-36.82699,-73.04977,CL,215413
Chillan,-36.60664,-72.10344,CL,150396
Chiguayante,-36.9256,-73.02841,CL,82545
Calama,-22.45667,-68.92371,CL,143084
Buin,-33.73257,-70.74281,CL,55441
Arica,-18.4746,-70.29792,CL,185999
Antofagasta,-23.65236,-70.3954,CL,309832
La Pintana,-33.58331,-70.63419,CL,201178
Lo Prado,-33.4443,-70.72552,CL,104316
Atsugi,35.44272,139.36931,JP,229199
Akashi,34.65524,135.00687,JP,297279
Zushi,35.29483,139.57812,JP,60055
Zama,35.4879,139.39101,JP,134671
Yukuhashi,33.72873,130.983,JP,71277
Yuki,36.3,139.88333,JP,51574
Yoshikawa,35.89232,139.84184,JP,60510
Yono,35.88333,139.63333,JP,1077730
Yonago,35.43333,133.33333,JP,141368
Yokosuka,35.28361,139.66722,JP,428992
Yokohama,35.43333,139.65,JP,3574443
Yokkaichi,34.96667,136.61667,JP,295841
Yawata,34.87009,135.7027,JP,71656
Honmachi,32.50439,130.59952,JP,104341
Yashio,35.82255,139.83905,JP,81345
Yao,34.61667,135.6,JP,273213
Yamaguchi,34.18333,131.46667,JP,145515
Yaizu,34.86877,138.31952,JP,121057
Utsunomiya,36.56667,139.88333,JP,449865
Urayasu,35.67056,139.88861,JP,143758
Uji,34.89044,135.80325,JP,192925
Ueno-ebisumachi,34.75856,136.13108,JP,61598
Ueda,36.40265,138.28161,JP,126606
Ube,33.94306,131.25111,JP,173733
Tsuyama,35.05215,133.99885,JP,89717
Tsushima,35.16667,136.71667,JP,67658
Tsurusaki,33.24528,131.69165,JP,76968
Tsuruoka,38.72167,139.82167,JP,99820
Tsuruga,35.64547,136.0558,JP,68482
Tsu,34.73333,136.51667,JP,163461
Toyota,35.08333,137.15,JP,362383
Toyonaka,34.78244,135.46932,JP,384459
Toyokawa,34.81667,137.4,JP,120537
Toyohashi,34.76667,137.38333,JP,378374
Toyama,36.7,137.21667,JP,325532
Tottori,35.5,134.23333,JP,154098
Tosu,33.36667,130.51667,JP,63595
Tondabayashicho,34.50065,135.60211,JP,132873
Tomigusuku,26.18583,127.68192,JP,55715
Tokyo,35.6895,139.69171,JP,8336599
Tokuyama,34.05,131.81667,JP,101133
Tokushima,34.06667,134.56667,JP,267345
Tokorozawa,35.79916,139.46903,JP,339435
Toki,35.35,137.18333,JP,61394
Tochigi,36.38333,139.73333,JP,82133
Tenri,34.58333,135.83333,JP,71052
Tateyama,34.98333,139.86667,JP,50064
Tatebayashi,36.25,139.53333,JP,81274
Nishi-Tokyo-shi,35.72526,139.5383,JP,195164
Tanashicho,35.72922,139.53813,JP,82112
Tanabe,34.82242,135.76604,JP,65903
Tanabe,33.73333,135.36667,JP,69563
Tamano,34.51745,133.94574,JP,67786
Takefu,35.90393,136.16687,JP,75753
Takayama,36.13333,137.25,JP,66636
Takatsuki,34.84833,135.61678,JP,354468
Takasaki,36.33333,139.01667,JP,240857
Takarazuka,34.79936,135.35697,JP,219789
Takaoka,36.75,137.01667,JP,170077
Takamatsu,34.33333,134.05,JP,334223
Takaishi,34.51667,135.43333,JP,60511
Tajimi,35.31667,137.13333,JP,107818
Tagawa,33.63333,130.8,JP,51608
Suzuka,34.88333,136.58333,JP,191477
Suzaka,36.65,138.31667,JP,54022
Suwa,36.03799,138.11308,JP,54735
Suita,34.76143,135.51567,JP,351630
Soka,35.83643,139.79957,JP,231445
Soja,34.67534,133.75091,JP,57469
Shizuoka,34.98333,138.38333,JP,701561
Shiraoka,36.01839,139.66034,JP,50974
Shiojiri,36.1,137.96667,JP,67159
Shimonoseki,33.95,130.95,JP,245786
Shimodate,36.3,139.98333,JP,63666
Minato,34.2152,135.1501,JP,375339
Shimada,34.81667,138.18333,JP,75781
Shiki,35.83333,139.58333,JP,65411
Shibata,37.95,139.33333,JP,80793
Seto,35.23333,137.1,JP,134246
Satsumasendai,31.81667,130.3,JP,73132
Satte,36.07254,139.72615,JP,55286
Sasebo,33.16834,129.72502,JP,237444
Sano,36.31667,139.58333,JP,82535
Sanjo,37.61667,138.95,JP,82893
Sandacho,34.88444,135.22694,JP,132858
Sakurai,34.5,135.85,JP,62964
Saku,36.21667,138.48333,JP,68885
Sakata,38.91667,139.855,JP,100446
Sakaidecho,34.32278,133.8356,JP,57090
Sakai,34.58333,135.46667,JP,782339
Sakado,35.95694,139.38889,JP,96656
Saga,33.23333,130.3,JP,165236
Sabae,35.94647,136.18498,JP,66291
Oyama,36.3,139.8,JP,159936
Otsu,35,135.86667,JP,298164
Ota,36.3,139.36667,JP,152104
Osaka,34.69374,135.50218,JP,2592413
Onomichi,34.41667,133.2,JP,90936
Ono,34.85,134.93333,JP,50230
Omuta,33.03333,130.45,JP,131974
Omura,32.92139,129.95389,JP,89918
Ome,35.78389,139.24306,JP,149323
Okegawa,36,139.55722,JP,75062
Okazaki,34.95,137.16667,JP,352361
Okayama,34.65,133.93333,JP,639652
Okaya,36.05659,138.0451,JP,54286
Oita,33.23333,131.6,JP,448907
Oi,35.85091,139.51998,JP,50593
Ogaki,35.35,136.61667,JP,150570
Odawara,35.25556,139.15972,JP,203035
Obu,35.01756,136.94947,JP,77864
Numazu,35.1,138.86667,JP,204318
Nogata,33.74051,130.72263,JP,56821
Noda,35.94897,139.86793,JP,121411
Nobeoka,32.58333,131.66667,JP,121949
Nishio,34.86667,137.05,JP,103337
Nishinomiya-hama,34.71562,135.33199,JP,468925
Niitsu-honcho,37.80024,139.1224,JP,65910
Niihama,33.96047,133.30522,JP,123059
Niigata,37.88637,139.00589,JP,505272
Narutocho-mitsuishi,34.19933,134.60932,JP,64082
Nara-shi,34.68505,135.80485,JP,367353
Nakatsugawa,35.48333,137.5,JP,55011
Nakatsu,33.59811,131.1883,JP,67372
Naha,26.21667,127.68333,JP,300795
Nagoya,35.18147,136.90641,JP,2191279
Nago,26.61502,127.98543,JP,59587
Nagasaki,32.75,129.88333,JP,410204
Nagareyama,35.8563,139.90266,JP,156000
Nagaoka,37.45,138.85,JP,195318
Nagano,36.65,138.18333,JP,360176
Nagahama,35.38333,136.26667,JP,62089
Nabari,34.61667,136.08333,JP,88128
Musashino,35.70611,139.55944,JP,137479
Muko,34.96545,135.70415,JP,53222
Moriyama,35.06667,135.98333,JP,68584
Moriguchi,34.73333,135.56667,JP,148350
Miyazaki,31.91667,131.41667,JP,311203
Miyakonojo,31.73333,131.06667,JP,130994
Mishima,35.11667,138.91667,JP,113479
Mino,34.82691,135.47057,JP,129127
Minamirinkan,35.49527,139.44279,JP,224015
Miki,34.8,134.98333,JP,74701
Mihara,34.4,133.08333,JP,80387
Matsuto,36.51667,136.56667,JP,68159
Matsumoto,36.23333,137.96667,JP,210667
Matsue,35.48333,133.05,JP,156811
Matsudo,35.77995,139.90144,JP,470277
Matsubara,34.56667,135.55,JP,130855
Marugame,34.28333,133.78333,JP,82090
Maizuru,35.45,135.33333,JP,92465
Maebashi,36.4,139.08333,JP,282711
Maebaru-chuo,33.55916,130.20148,JP,70339
Machida,35.54028,139.45083,JP,399969
Kyoto,35.02107,135.75385,JP,1459640
Kusatsu,35.01667,135.96667,JP,127680
Kurume,33.31667,130.51667,JP,238197
Kure,34.23222,132.56658,JP,196624
Kurashiki,34.58333,133.76667,JP,437581
Kumamoto,32.80589,130.69181,JP,680423
Kumagaya,36.13497,139.39004,JP,155813
Kukichuo,36.06739,139.67498,JP,73373
Kudamatsu,34,131.86667,JP,52772
Koshigaya,35.89035,139.78916,JP,317437
Konosu,36.06868,139.51684,JP,88493
Konan,35.33165,136.87042,JP,100389
Komatsu,36.40263,136.45088,JP,109045
Komaki,35.28333,136.91667,JP,151025
Kokubunji,35.70222,139.47556,JP,118682
Kokubu-matsuki,31.73333,130.76667,JP,57896
Koga,36.18333,139.71667,JP,58004
Koga,33.73333,130.46667,JP,60045
Kofu,35.66667,138.56667,JP,190000
Kochi,33.55,133.53333,JP,335570
Kobe,34.6913,135.183,JP,1528478
Kitakyushu,33.85181,130.85034,JP,997536
Kishiwada,34.46667,135.36667,JP,205561
Kisarazu,35.38329,139.93254,JP,122524
Kiryu,36.4,139.33333,JP,110219
Kazo,36.11667,139.6,JP,71291
Kawasaki,35.52056,139.71722,JP,1306785
Kawanishi,34.81667,135.41667,JP,160520
Kawaguchi,35.80521,139.71072,JP,468565
Kawagoe,35.90861,139.48528,JP,337931
Kasukabe,35.98308,139.74966,JP,206915
Kasugai,35.24762,136.97229,JP,298589
Kashiwazaki,37.36667,138.55,JP,86183
Kashiwa,35.86224,139.97732,JP,340221
Kashihara-shi,34.50896,135.7929,JP,124521
Kashihara,34.58333,135.61667,JP,79058
Kasaoka,34.50597,133.50391,JP,58461
Kariya,34.98333,136.98333,JP,139159
Karatsu,33.4425,129.96972,JP,78330
Kanuma,36.55,139.73333,JP,94903
Kanoya,31.38333,130.85,JP,82335
Kanazawa,36.6,136.61667,JP,458937
Kamirenjaku,35.69423,139.55495,JP,178739
Kameoka,35,135.58333,JP,97181
Kamakura,35.30889,139.55028,JP,166016
Kakogawacho-honmachi,34.76943,134.82905,JP,271634
Kakegawa,34.76667,138.01667,JP,84004
Kakamigahara,35.41667,136.86667,JP,132241
Kashima-shi,35.96536,140.64474,JP,65814
Kaizuka,34.45,135.35,JP,92632
Kagoshima,31.56667,130.55,JP,555352
Kadoma,34.7381,135.57442,JP,131727
Izumo,35.36667,132.76667,JP,89286
Izumisano,34.41667,135.31667,JP,100595
Izumiotsu,34.5,135.4,JP,80772
Izumi,34.48333,135.43333,JP,189085
Iwatsuki,35.96474,139.69644,JP,108833
Iwata,34.7,137.85,JP,88509
Iwakuni,34.16297,132.22,JP,104004
Iwade,34.25,135.31667,JP,55633
Itoman,26.12647,127.66918,JP,57184
Ito,34.96667,139.08333,JP,71578
Itami,34.78427,135.40126,JP,193524
Isesaki,36.31667,139.2,JP,130692
Isehara,35.39932,139.31019,JP,103401
Ise,34.48333,136.7,JP,97314
Isahaya,32.84111,130.04306,JP,97371
Inuyama,35.37995,136.94295,JP,73995
Inazawa,35.25,136.78333,JP,102130
Ina,35.82756,137.95378,JP,62104
Imaricho-ko,33.27362,129.87877,JP,57940
Imaichi,36.71667,139.68333,JP,64323
Ikoma,34.68333,135.7,JP,117601
Ikeda,34.82208,135.4298,JP,99476
Iizuka,33.63654,130.68678,JP,78206
Iida,35.51965,137.82074,JP,107111
Ichinomiya,35.3,136.8,JP,280331
Ibaraki,34.81641,135.56828,JP,273992
Honjo,36.2378,139.19023,JP,61868
Hofu,34.05,131.56667,JP,116925
Hita,33.3213,130.94098,JP,61481
Hiroshima,34.4,132.45,JP,1143841
Hiratsuka,35.32785,139.33735,JP,259052
Hirakata,34.81352,135.64914,JP,406331
Hino,35.67306,139.40028,JP,171777
Himimachi,36.85609,136.9885,JP,54510
Himeji,34.81667,134.7,JP,481493
Hikone,35.25,136.25,JP,110925
Hekinan,34.88333,136.98333,JP,68872
Hatsukaichi,34.35,132.33333,JP,77341
Hatogaya-honcho,35.83314,139.7425,JP,53062
Hashimoto,34.31667,135.61667,JP,57115
Hanyu,36.16667,139.53333,JP,58686
Hanno,35.85194,139.31806,JP,86262
Handa,34.88333,136.93333,JP,116119
Hamamatsu,34.7,137.73333,JP,605098
Hamakita,34.8,137.78333,JP,86502
Hadano,35.37111,139.22361,JP,174281
Hachioji,35.65583,139.32389,JP,579399
Omihachiman,35.12861,136.0976,JP,69189
Gyoda,36.14074,139.46011,JP,86343
Gushikawa,26.35937,127.86735,JP,65251
Gotenba,35.31859,138.94343,JP,83794
Ginowan,26.26265,127.76147,JP,91800
Gifu-shi,35.42291,136.76039,JP,397714
Gamagori,34.83333,137.23333,JP,80786
Futtsu,35.3108,139.81877,JP,51650
Honcho,35.70129,139.98648,JP,560743
Fukuyama,34.48333,133.36667,JP,383298
Fukuroi,34.75,137.91667,JP,63045
Fukuoka,33.6,130.41667,JP,1392289
Fukui-shi,36.06443,136.22257,JP,248707
Fukuchiyama,35.3,135.11667,JP,68735
Fukayacho,36.2,139.28333,JP,106595
Fujisawa,35.34926,139.47666,JP,394624
Fujioka,36.24624,139.07204,JP,63358
Fujinomiya,35.21667,138.61667,JP,121515
Fujieda,34.86667,138.26667,JP,132859
Fuji,35.16667,138.68333,JP,240014
Fuchucho,34.5735,133.23513,JP,50746
Daitocho,34.71378,135.62033,JP,129521
Chofu,35.65924,139.54837,JP,212977
Chiryu,35,137.03333,JP,67062
Chino,35.9944,138.15428,JP,56567
Chikushino-shi,33.49631,130.5156,JP,100353
Chigasaki,35.33638,139.40434,JP,231657
Chichibu,35.99028,139.07639,JP,58507
Beppu,33.27945,131.49751,JP,125065
Ashiya,34.72807,135.30264,JP,88573
Ashikaga,36.33333,139.45,JP,159671
Anjo,34.95828,137.08054,JP,178402
Anan,33.91667,134.65,JP,55421
Amagasaki,34.71667,135.41667,JP,442173
Kariya,34.75136,134.38734,JP,52015
Ageoshimo,35.97145,139.61382,JP,219401
Okinawa,26.33583,127.80139,JP,125483
Hasuda,35.97113,139.6491,JP,65161
Kamifukuoka,35.87266,139.51369,JP,52323
Sayama,35.85295,139.41212,JP,160843
Fussa,35.73667,139.32361,JP,62296
Asaka,35.80472,139.60194,JP,128058
Wako,35.78944,139.62333,JP,77435
Shimotoda,35.815,139.6853,JP,118731
Kimitsu,35.35043,139.87029,JP,92126
Miura,35.14,139.61917,JP,51483
Wakayama,34.23333,135.16667,JP,351000
Uwajima,33.22375,132.56001,JP,58971
Saijo,33.91667,133.18333,JP,58823
Matsuyama,33.83916,132.76574,JP,443322
Yotsukaido,35.65,140.16667,JP,86701
Yonezawa,37.91,140.11667,JP,94486
Yamagata,38.23333,140.36667,JP,254538
Yachimata,35.65,140.31667,JP,83322
Ushiku,35.96667,140.13333,JP,80020
Tsukuba,36.2,140.1,JP,175589
Toride,35.9,140.08333,JP,80716
Togane,35.55,140.36667,JP,66332
Tendo,38.35361,140.36972,JP,65393
Sukagawa,37.28333,140.38333,JP,68790
Shiroi,35.8,140.06667,JP,55314
Shiogama,38.31667,141.03333,JP,59526
Sendai,38.26667,140.86667,JP,1063103
Sakura,35.71667,140.23333,JP,182549
Ryugasaki,35.9,140.18333,JP,85761
Otawara,36.86667,140.03333,JP,58888
Oami,35.51667,140.31667,JP,53239
Narita,35.78333,140.31667,JP,100641
Moriya,35.93333,140,JP,56566
Morioka,39.7,141.15,JP,295172
Mooka,36.43333,140.01667,JP,65717
Mobara,35.42583,140.29608,JP,97315
Mizusawa,39.13333,141.13333,JP,61281
Miyako,39.64691,141.94057,JP,51721
Mito,36.35,140.45,JP,246538
Kuroiso,36.96667,140.05,JP,61230
Koriyama,37.4,140.38333,JP,340560
Kitakami,39.28333,141.11667,JP,93854
Kitaibaraki,36.78671,140.74901,JP,50843
Katsuta,36.38333,140.53333,JP,155968
Katori-shi,35.89767,140.49943,JP,83181
Iwaki,37.05,140.88333,JP,357309
Ishioka,36.18333,140.26667,JP,52304
Ishinomaki,38.41667,141.3,JP,117233
Ichinoseki,38.91667,141.13333,JP,62970
Ichihara,35.51667,140.08333,JP,283531
Hitachi,36.6,140.65,JP,186307
Hanamaki,39.38333,141.11667,JP,73115
Furukawa,38.57167,140.95556,JP,76312
Fukushima,37.75,140.46667,JP,294237
Chiba,35.6,140.11667,JP,919729
Akita,39.71667,140.11667,JP,320069
Abiko,35.86667,140.01667,JP,131771
Tomakomai,42.63694,141.60333,JP,174806
Sapporo,43.06667,141.35,JP,1883027
Otaru,43.18944,141.00222,JP,143792
Odate,40.27178,140.55756,JP,64543
Obihiro,42.91722,143.20444,JP,173890
Noshiro,40.20838,140.0274,JP,51079
Muroran,42.31722,140.98806,JP,96197
Kushiro,42.975,144.37472,JP,183612
Kitami,43.80306,143.89083,JP,113137
Iwamizawa,43.20028,141.75972,JP,85107
Ishikari,43.23972,141.35389,JP,57301
Kitahiroshima,42.97583,141.56722,JP,62370
Hirosaki,40.59306,140.4725,JP,174972
Hakodate,41.77583,140.73667,JP,275730
Hachinohe,40.5,141.5,JP,239046
Ebetsu,43.10806,141.55056,JP,133953
Chitose,42.81944,141.65222,JP,92942
Asahikawa,43.77063,142.36489,JP,356612
Aomori,40.81667,140.73333,JP,298394
Nanto-shi,36.56922,136.91162,JP,55315
Neyagawa,34.76615,135.62759,JP,238549
Hitachi-Naka,36.39659,140.53479,JP,156811
Onojo,33.53567,130.47861,JP,94957
Minokamo,35.48199,137.02166,JP,51543
Joetsu,37.14828,138.23642,JP,204137
Saitama,35.90807,139.65657,JP,1193350
Higashimurayama,35.75459,139.46852,JP,150556
Arashiyama,35.01481,135.67755,JP,50000
Dazaifu,33.51278,130.52389,JP,70587
Kamigyo-ku,35.02954,135.75666,JP,83000
Kuwana,35.05192,136.66958,JP,140051
Eisen,36.82167,128.63083,KR,84625
Eisen,35.9675,128.93083,KR,56006
Yangsan,35.34199,129.03358,KR,71936
Yangp'yong,37.48972,127.49056,KR,83367
Yangju,37.83311,127.06169,KR,179923
Wonju,37.35139,127.94528,KR,243387
Wanju,35.84509,127.14752,KR,84009
Ulsan,35.53722,129.31667,KR,962865
Uijeongbu-si,37.7415,127.0474,KR,479141
Daejeon,36.34913,127.38493,KR,1475221
Daegu,35.87028,128.59111,KR,2566540
Boryeong,36.34931,126.59772,KR,62039
Suwon,37.29111,127.00889,KR,1242724
Suncheon,34.9505,127.48784,KR,230796
Seoul,37.566,126.9784,KR,10349312
Seosan,36.78167,126.45222,KR,74208
Sokcho,38.20701,128.59181,KR,89047
Sangju,36.41528,128.16056,KR,55640
Busan,35.10168,129.03004,KR,3678555
Bucheon-si,37.49889,126.78306,KR,850731
Pohang,36.02917,129.36481,KR,500000
Osan,37.15222,127.07056,KR,158978
Asan,36.78361,127.00417,KR,97749
Okcheon,36.3012,127.568,KR,56634
Kosong,38.37881,128.4676,KR,62446
Nangen,35.41,127.38583,KR,58057
Mungyeong,36.59458,128.19946,KR,81525
Muan,34.99014,126.47899,KR,75718
Mokpo,34.81282,126.39181,KR,268402
Miryang,35.49333,128.74889,KR,53103
Masan,35.12725,126.83149,KR,434371
Gyeongsan-si,35.82333,128.73778,KR,129903
Gyeongju,35.84278,129.21167,KR,155237
Kwangyang,34.97528,127.58917,KR,89281
Gwangju,37.41,127.25722,KR,81780
Gwangju,35.15472,126.91556,KR,1416938
Guri-si,37.5986,127.1394,KR,195236
Gunsan,35.97861,126.71139,KR,243406
Gumi,36.1136,128.336,KR,291006
Goyang-si,37.65639,126.835,KR,1073069
Gongju,36.45556,127.12472,KR,72435
Kyosai,34.85028,128.58861,KR,72124
Koch'ang,35.43333,126.7,KR,72996
Kimhae,35.23417,128.88111,KR,356242
Gimcheon,36.12176,128.11981,KR,150000
Gapyeong,37.83101,127.51059,KR,55415
Gangneung,37.75266,128.87239,KR,180611
Iksan,35.94389,126.95444,KR,283501
Incheon,37.45646,126.70515,KR,2628000
Icheon-si,37.27917,127.4425,KR,196230
Hwasun,35.06125,126.98746,KR,59914
Hwaseong-si,37.20682,126.8169,KR,476297
Hongseong,36.6009,126.665,KR,89174
Hongch'on,37.6918,127.8857,KR,75251
Chuncheon,37.87472,127.73417,KR,209746
Jeonju,35.82194,127.14889,KR,711424
Cheongju-si,36.63722,127.48972,KR,634596
Cheonan,36.8065,127.1522,KR,365114
Chinju,35.19278,128.08472,KR,307242
Chinch'on,36.85667,127.44333,KR,60964
Jeju City,33.50972,126.52194,KR,408364
Changwon,35.22806,128.68111,KR,550000
Anyang-si,37.3925,126.92694,KR,634367
Anseong,37.01083,127.27028,KR,69255
Ansan-si,37.32361,126.82194,KR,650728
Andong,36.56636,128.72275,KR,129319
Sinhyeon,34.8825,128.62667,KR,82560
Yeosu,34.76062,127.66215,KR,295538
Tonghae,37.54389,129.10694,KR,101128
Pubal,37.29167,127.50778,KR,63026
Seongnam-si,37.43861,127.13778,KR,1031935
Hanam,37.54,127.20556,KR,134902
Hwado,37.6525,127.3075,KR,106358
Namyangju,37.63667,127.21417,KR,90798
Ungsang,35.40611,129.16861,KR,83360
Wabu,37.58972,127.22028,KR,96775
Naeso,35.24972,128.52,KR,80987
Hwawon,35.80167,128.50083,KR,64718
Kwangmyong,37.47722,126.86639,KR,357545
Sinan,34.8262,126.10863,KR,53150
Seogwipo,33.25333,126.56181,KR,155691
Changnyeong,35.54145,128.49506,KR,74668
Sejong,36.59245,127.29223,KR,230327
Jeongeup,35.60004,126.91699,KR,139876
Yeongam,34.80059,126.69669,KR,55000
Tocumen,9.08939,-79.3831,PA,50844
San Miguelito,9.05032,-79.47068,PA,321501
Pedregal,9.06667,-79.43333,PA,51641
Panama,8.9936,-79.51973,PA,408168
Las Cumbres,9.08916,-79.52809,PA,69102
La Chorrera,8.88028,-79.78333,PA,61232
Juan Diaz,9.05,-79.45,PA,100636
David,8.42729,-82.43085,PA,81957
Colon,9.35451,-79.90011,PA,76643
Arraijan,8.95187,-79.66011,PA,76815